City_ID,City,Lat,Lng,Max Temp,Humidity,Cloudiness,Wind Speed,Country,Date
0,arraial do cabo,-22.9661,-42.0278,25.92,83,75,3.6,BR,1674858476
1,evensk,61.95,159.2333,-16.4,76,92,8.91,RU,1674858553
2,thompson,55.7435,-97.8558,-25.91,64,20,4.12,CA,1674858553
3,marquette,46.5333,-87.6335,-4.81,82,100,5.36,US,1674858554
4,pitimbu,-7.4706,-34.8086,27.33,74,5,4.71,BR,1674858555
5,ransang,8.9603,117.5828,25.48,87,100,2.66,PH,1674858555
6,saldanha,-33.0117,17.9442,18.03,91,0,6.52,ZA,1674858556
7,vaini,-21.2,-175.2,24.09,94,100,3.09,TO,1674858557
8,isangel,-19.55,169.2667,25.06,94,75,1.03,VU,1674858557
9,mahon,39.8885,4.2658,8.31,66,40,6.69,ES,1674858459
10,hilo,19.7297,-155.09,26.17,75,75,3.09,US,1674858350
11,hambantota,6.1241,81.1185,23.71,83,100,4.56,LK,1674858559
12,puerto ayora,-0.7393,-90.3518,28.98,91,73,1.79,EC,1674858167
13,yarmouth,41.7057,-70.2286,3.26,69,0,3.09,US,1674858560
14,busselton,-33.65,115.3333,10.97,82,0,4.79,AU,1674858560
15,ushuaia,-54.8,-68.3,11.81,71,100,5.14,AR,1674858306
16,albany,42.6001,-73.9662,1.36,75,97,0.9,US,1674858561
17,tecoanapa,16.5167,-98.75,28.61,53,22,4.09,MX,1674858562
18,hobart,-42.8794,147.3294,22.37,52,0,4.63,AU,1674858563
19,alofi,-19.0595,-169.9187,29.94,70,92,5.14,NU,1674858563
20,primorka,47.2836,39.0625,-1.44,76,3,5.01,RU,1674858564
21,mehamn,71.0357,27.8492,1.95,87,100,8.69,NO,1674858565
22,cape town,-33.9258,18.4232,21.06,74,0,6.69,ZA,1674858566
23,chokurdakh,70.6333,147.9167,-30.05,97,17,3.88,RU,1674858566
24,udalguri,26.7667,92.1333,16.48,60,2,1.52,IN,1674858567
25,norman wells,65.282,-126.8329,-19.98,77,20,7.72,CA,1674858568
26,lorengau,-2.0226,147.2712,27.44,81,75,4.37,PG,1674858568
27,alcaniz,41.05,-0.1333,1.39,74,17,5.37,ES,1674858569
28,lata,40.1629,-8.3327,6.71,80,3,1.64,PT,1674858570
29,aykhal,66.0,111.5,-34.25,100,100,2.61,RU,1674858570
30,sorland,67.667,12.6934,4.92,67,100,12.32,NO,1674858572
31,kulhudhuffushi,6.6221,73.07,26.59,72,11,4.52,MV,1674858572
32,curuguaty,-24.4694,-55.6945,32.73,34,47,1.82,PY,1674858573
33,torbay,47.6666,-52.7314,1.99,87,75,9.77,CA,1674858415
34,monte plata,18.807,-69.784,27.79,67,21,4.17,DO,1674858574
35,copiapo,-27.3667,-70.3333,17.83,40,0,3.75,CL,1674858461
36,smithers,54.7804,-127.1743,2.18,87,75,4.12,CA,1674858537
37,rikitea,-23.1203,-134.9692,26.12,71,35,5.47,PF,1674858575
38,novo aripuana,-5.1206,-60.3797,24.66,94,70,0.75,BR,1674858576
39,beringovskiy,63.05,179.3167,-9.94,98,100,2.69,RU,1674858577
40,marystown,47.1666,-55.1483,-0.91,74,96,10.14,CA,1674858577
41,bluff,-46.6,168.3333,13.13,62,1,2.26,NZ,1674858578
42,kodiak,57.79,-152.4072,1.73,93,100,0.0,US,1674858578
43,prince rupert,54.3161,-130.3201,6.05,87,100,6.69,CA,1674858579
44,dunedin,-45.8742,170.5036,14.25,62,2,2.83,NZ,1674858547
45,gorom-gorom,14.4439,-0.2361,25.21,15,43,4.83,BF,1674858580
46,tiksi,71.6872,128.8694,-38.21,100,98,1.13,RU,1674858581
47,esperance,-33.8667,121.9,16.45,59,84,2.69,AU,1674858582
48,hamilton,39.1834,-84.5333,7.62,58,100,7.2,US,1674858282
49,yakeshi,49.2833,120.7333,-37.8,100,94,1.04,CN,1674858583
50,matehuala,23.65,-100.65,17.98,39,100,4.9,MX,1674858583
51,inhambane,-23.865,35.3833,24.59,86,35,5.51,MZ,1674858584
52,sambava,-14.2667,50.1667,24.71,93,31,1.66,MG,1674858585
53,luderitz,-26.6481,15.1594,18.18,80,0,7.84,NA,1674858585
54,micheweni,-4.9667,39.8333,26.46,74,2,6.83,TZ,1674858586
55,waitati,-45.75,170.5667,15.13,58,6,2.63,NZ,1674858587
56,ribeira grande,38.5167,-28.7,14.32,76,28,5.81,PT,1674858587
57,port augusta,-32.5,137.7667,24.66,60,90,8.79,AU,1674858588
58,buchanan,5.8808,-10.0467,24.74,89,87,4.7,LR,1674858589
59,mataura,-46.1927,168.8643,15.92,45,0,1.98,NZ,1674858590
60,saint george,37.1041,-113.5841,11.35,35,0,1.34,US,1674858590
61,provideniya,64.3833,-173.3,-13.61,93,75,8.65,RU,1674858591
62,sistranda,63.7256,8.834,4.98,88,100,18.94,NO,1674858408
63,castro,-24.7911,-50.0119,21.82,71,13,1.19,BR,1674858592
64,severo-kurilsk,50.6789,156.125,-3.58,82,94,10.98,RU,1674858593
65,airai,-8.9266,125.4092,16.36,88,100,0.91,TL,1674858593
66,port lincoln,-34.7333,135.8667,20.03,84,100,2.92,AU,1674858594
67,macusani,-14.0833,-70.4333,6.55,78,95,2.62,PE,1674858594
68,bathsheba,13.2167,-59.5167,24.34,73,20,3.09,BB,1674858595
69,mar del plata,-38.0023,-57.5575,22.01,93,75,5.66,AR,1674858537
70,kaisiadorys,54.8667,24.45,-0.58,80,100,2.26,LT,1674858596
71,faya,18.3851,42.4509,9.29,77,4,0.93,SA,1674858597
72,coihaique,-45.5752,-72.0662,14.97,55,75,3.09,CL,1674858598
73,ahipara,-35.1667,173.1667,22.57,84,100,1.75,NZ,1674858598
74,bonavista,48.6499,-53.1147,0.08,74,82,10.39,CA,1674858599
75,husavik,66.0449,-17.3389,-0.56,70,33,7.12,IS,1674858599
76,pevek,69.7008,170.3133,-23.18,84,100,1.54,RU,1674858600
77,hami,42.8,93.45,-8.81,37,1,1.2,CN,1674858601
78,ghiror,27.1833,78.8,8.27,43,0,3.78,IN,1674858601
79,punta arenas,-53.15,-70.9167,11.06,82,100,4.12,CL,1674857848
80,mana,5.6592,-53.7767,23.64,79,87,2.61,GF,1674858602
81,port alfred,-33.5906,26.891,22.32,94,12,1.34,ZA,1674858603
82,namibe,-15.1961,12.1522,23.27,80,98,0.78,AO,1674858604
83,new norfolk,-42.7826,147.0587,22.18,52,98,1.87,AU,1674858605
84,atambua,-9.1061,124.8925,24.65,81,100,0.25,ID,1674858606
85,morondava,-20.2833,44.2833,27.13,81,100,11.13,MG,1674858607
86,jalor,25.35,72.6167,9.35,26,0,3.4,IN,1674858607
87,calabozo,8.9242,-67.4293,29.49,34,100,3.27,VE,1674858608
88,ankola,14.6667,74.3,20.93,49,0,2.49,IN,1674858609
89,cidreira,-30.1811,-50.2056,24.9,81,4,8.7,BR,1674858609
90,qaanaaq,77.484,-69.3632,-18.47,95,100,1.73,GL,1674858610
91,bethel,41.3712,-73.414,3.64,78,100,2.57,US,1674858611
92,kondinskoye,59.6481,67.41,-5.48,97,100,2.47,RU,1674858611
93,nikolskoye,59.7035,30.7861,-4.0,96,30,1.67,RU,1674858612
94,bredasdorp,-34.5322,20.0403,18.29,87,1,1.17,ZA,1674858613
95,challans,46.8436,-1.8749,6.11,76,50,6.1,FR,1674858613
96,nayoro,44.3506,142.4578,-8.66,94,100,1.42,JP,1674858614
97,victoria,22.2855,114.1577,12.36,32,99,6.71,HK,1674858488
98,carnarvon,-24.8667,113.6333,23.82,67,0,9.32,AU,1674858616
99,barrow,71.2906,-156.7887,-28.99,76,0,6.17,US,1674858617
100,yellowknife,62.456,-114.3525,-25.71,70,40,6.69,CA,1674858512
101,nangomba,-10.9,38.5,21.67,98,92,2.02,TZ,1674858618
102,praia,14.9215,-23.5087,24.3,57,0,7.72,CV,1674858619
103,vallenar,-28.5708,-70.7581,26.85,41,0,2.88,CL,1674858619
104,jumla,29.2747,82.1838,-0.08,37,0,2.98,NP,1674858620
105,catuday,16.2923,119.8062,23.68,67,51,4.69,PH,1674858621
106,atuona,-9.8,-139.0333,26.25,76,39,8.87,PF,1674858622
107,saskylakh,71.9167,114.0833,-40.92,97,18,3.37,RU,1674858622
108,pangody,65.85,74.4859,-15.09,98,84,4.56,RU,1674858623
109,gravdal,68.1214,13.5031,4.94,65,40,5.14,NO,1674858624
110,adrar,20.5022,-10.0711,14.82,18,100,4.71,MR,1674858625
111,dikson,73.5069,80.5464,-21.38,93,100,5.6,RU,1674858627
112,berlevag,70.8578,29.0864,1.97,80,75,12.35,NO,1674858628
113,bambari,5.768,20.6757,26.77,20,83,0.96,CF,1674858628
114,soledade,-28.8183,-52.5103,25.46,45,89,0.87,BR,1674858629
115,sungaipenuh,-2.0833,101.3833,17.6,94,99,0.85,ID,1674858630
116,waingapu,-9.6567,120.2641,26.47,85,100,2.63,ID,1674858630
117,langsa,4.4683,97.9683,22.88,95,100,1.0,ID,1674858631
118,pentecoste,-3.7928,-39.2703,24.08,86,69,2.26,BR,1674858632
119,alice springs,-23.7,133.8833,24.75,78,100,3.09,AU,1674858632
120,bellavista,-7.0561,-76.5911,27.81,60,88,0.41,PE,1674858633
121,petropavlovsk-kamchatskiy,53.0452,158.6483,-5.67,74,75,2.0,RU,1674858634
122,avarua,-21.2078,-159.775,29.03,70,40,7.72,CK,1674858635
123,faanui,-16.4833,-151.75,27.11,75,17,5.42,PF,1674858636
124,nikolsk,53.7189,46.0712,-12.92,99,58,2.53,RU,1674858636
125,coahuayana,18.7333,-103.6833,29.62,32,55,2.67,MX,1674858637
126,codrington,-38.2667,141.9667,22.82,53,100,6.09,AU,1674858637
127,tual,-5.6667,132.75,28.16,70,100,1.1,ID,1674858638
128,upernavik,72.7868,-56.1549,-23.99,84,51,2.95,GL,1674858639
129,jamestown,42.097,-79.2353,-3.23,72,20,6.69,US,1674858467
130,alakurtti,66.9672,30.3491,-1.62,91,100,5.35,RU,1674858640
131,chifeng,42.2683,118.9636,-15.67,69,1,3.14,CN,1674858640
132,altay,47.8667,88.1167,-16.2,65,0,2.69,CN,1674858641
133,henties bay,-22.116,14.2845,18.55,85,87,1.9,NA,1674858642
134,touros,-5.1989,-35.4608,26.81,75,0,5.88,BR,1674858642
135,beloha,-25.1667,45.05,23.52,89,100,6.4,MG,1674858643
136,rulenge,-2.7175,30.6325,15.04,93,63,0.9,TZ,1674858644
137,sabha,27.0377,14.4283,8.6,27,0,3.26,LY,1674858645
138,ginda,30.6945,78.4932,5.25,16,0,3.96,IN,1674858645
139,ponta delgada,37.7333,-25.6667,13.4,82,20,4.12,PT,1674858536
140,cenotillo,20.9667,-88.6167,21.06,78,86,5.5,MX,1674858646
141,longyearbyen,78.2186,15.6401,-8.09,73,20,13.38,SJ,1674858516
142,bukama,-9.2,25.85,20.55,98,97,1.49,CD,1674858647
143,aklavik,68.2191,-135.0107,-30.0,76,20,1.03,CA,1674858648
144,alghero,40.5589,8.3181,7.05,76,20,3.6,IT,1674858649
145,kenora,49.8167,-94.4337,-16.46,71,100,3.09,CA,1674858626
146,ancud,-41.8697,-73.8203,15.08,70,18,3.88,CL,1674858650
147,bandarbeyla,9.4942,50.8122,24.19,71,36,6.61,SO,1674858651
148,geraldton,-28.7667,114.6,15.23,88,0,2.57,AU,1674858651
149,chernyshevskiy,63.0128,112.4714,-32.8,97,100,3.94,RU,1674858652
150,iturama,-19.7281,-50.1956,23.78,83,90,2.82,BR,1674858653
151,urubicha,-15.3833,-62.95,26.53,72,99,1.07,BO,1674858653
152,totness,5.8833,-56.3167,23.23,77,57,3.04,SR,1674858654
153,matay,28.419,30.7792,17.43,22,36,3.89,EG,1674858655
154,palauig,15.435,119.9045,24.3,68,85,2.45,PH,1674858522
155,mount gambier,-37.8333,140.7667,20.25,67,100,2.57,AU,1674858656
156,laguna,38.421,-121.4238,17.88,54,0,2.57,US,1674858656
157,maltahohe,-24.8333,16.9833,24.76,41,72,2.96,NA,1674858657
158,umm lajj,25.0213,37.2685,23.11,52,0,4.31,SA,1674858658
159,tuktoyaktuk,69.4541,-133.0374,-33.0,75,75,5.66,CA,1674858658
160,nouakchott,18.0858,-15.9785,23.96,26,49,6.66,MR,1674858659
161,sabak,3.7675,100.9875,22.83,96,100,1.56,MY,1674858660
162,pincher creek,49.4833,-113.952,1.09,89,100,3.6,CA,1674858660
163,souillac,-20.5167,57.5167,25.21,94,75,0.51,MU,1674858661
164,vrangel,42.7297,133.0839,-17.48,78,9,5.1,RU,1674858662
165,kununurra,-15.7667,128.7333,25.99,94,95,1.54,AU,1674858663
166,the valley,18.217,-63.0578,25.08,65,20,4.12,AI,1674858663
167,saint-philippe,-21.3585,55.7679,25.77,88,89,0.84,RE,1674858664
168,kapaa,22.0752,-159.319,23.99,59,56,2.24,US,1674858463
169,beni,0.5,29.4667,18.98,62,66,1.24,CD,1674858666
170,lerik,38.7726,48.4128,-7.6,60,0,2.54,AZ,1674858666
171,avera,33.194,-82.5271,8.73,53,99,2.55,US,1674858667
172,omboue,-1.5746,9.2618,25.21,87,100,1.67,GA,1674858668
173,aktau,43.65,51.2,-0.68,56,99,6.39,KZ,1674858669
174,hithadhoo,-0.6,73.0833,27.08,76,61,3.09,MV,1674858669
175,bengkulu,-3.8004,102.2655,24.14,89,100,5.97,ID,1674858670
176,east london,-33.0153,27.9116,23.36,86,14,3.56,ZA,1674858671
177,pisco,-13.7,-76.2167,26.03,69,0,8.23,PE,1674858431
178,safaga,26.7292,33.9365,21.4,46,3,1.7,EG,1674858672
179,muros,42.7762,-9.0603,5.38,85,19,5.38,ES,1674858672
180,surgut,61.25,73.4167,-6.9,92,75,5.0,RU,1674858486
181,eureka,40.8021,-124.1637,11.46,85,70,4.02,US,1674858177
182,wamba,8.9333,8.6,26.59,24,100,1.91,NG,1674858675
183,vestmannaeyjar,63.4427,-20.2734,4.95,72,100,12.0,IS,1674858676
184,kieta,-6.2167,155.6333,28.72,70,32,1.05,PG,1674858677
185,dakar,14.6937,-17.4441,25.49,67,7,9.67,SN,1674858677
186,sholapur,17.6833,75.9167,20.88,35,0,4.02,IN,1674858444
187,san quintin,30.4833,-115.95,16.47,35,91,3.02,MX,1674858678
188,kuhdasht,33.535,47.6061,1.95,61,0,1.33,IR,1674858679
189,mandiana,10.6333,-8.6833,26.77,17,97,2.19,GN,1674858680
190,bondo,3.8146,23.6866,22.91,40,96,0.88,CD,1674858680
191,mnogovershinnyy,53.9353,139.9242,-24.66,96,100,1.79,RU,1674858681
192,arlit,18.7369,7.3853,20.43,14,70,4.03,NE,1674858682
193,fayaoue,-20.65,166.5333,27.36,79,68,5.48,NC,1674858683
194,bodh gaya,24.7,84.9833,13.64,80,0,2.83,IN,1674858683
195,fairbanks,64.8378,-147.7164,-13.0,80,0,2.06,US,1674858602
196,bowmore,34.9421,-79.3031,10.97,40,0,2.57,US,1674858684
197,weligama,5.9667,80.4167,23.66,87,99,0.76,LK,1674858579
198,livingstone,-17.8419,25.8543,19.02,93,100,1.36,ZM,1674858686
199,witu,-2.3889,40.4382,25.09,90,0,2.09,KE,1674858687
200,turukhansk,65.8167,87.9833,-14.54,96,99,3.78,RU,1674858687
201,kahului,20.8947,-156.47,23.01,92,75,8.23,US,1674858688
202,port elizabeth,-33.918,25.5701,23.94,92,75,7.72,ZA,1674858689
203,maniitsoq,65.4167,-52.9,-5.4,69,100,5.69,GL,1674858689
204,salym,60.0625,71.4789,-7.43,96,100,2.37,RU,1674858690
205,razole,16.4833,81.8333,17.43,93,59,1.75,IN,1674858691
206,mildura,-34.2,142.15,28.37,33,79,6.44,AU,1674858279
207,okhotsk,59.3833,143.3,-23.49,76,99,5.73,RU,1674858692
208,tasiilaq,65.6145,-37.6368,-5.91,81,100,5.93,GL,1674858693
209,hermanus,-34.4187,19.2345,18.78,88,0,1.0,ZA,1674858694
210,dingle,10.9995,122.6711,23.8,94,100,4.04,PH,1674858694
211,dourbali,11.8091,15.8632,26.23,13,100,3.87,TD,1674858695
212,arcata,40.8665,-124.0828,13.19,83,100,5.66,US,1674858696
213,kropotkin,45.4375,40.5756,-1.03,79,11,4.11,RU,1674858696
214,sursk,53.0754,45.6846,-13.54,98,45,1.86,RU,1674858697
215,pimenta bueno,-11.6725,-61.1936,22.21,98,100,0.95,BR,1674858698
216,high rock,26.6208,-78.2833,21.34,71,100,7.91,BS,1674858699
217,havre,49.5833,0.3333,4.0,86,0,3.6,FR,1674858699
218,ikalamavony,-21.15,46.5833,20.19,90,80,1.0,MG,1674858700
219,paulo ramos,-4.2167,-45.1833,22.92,96,49,1.42,BR,1674858701
220,weinan,34.5036,109.5089,-3.31,24,59,1.15,CN,1674858701
221,bonthe,7.5264,-12.505,25.41,89,50,2.97,SL,1674858702
222,houma,29.5958,-90.7195,15.0,41,0,3.6,US,1674858703
223,coquimbo,-29.9533,-71.3436,18.85,77,0,5.14,CL,1674858574
224,camana,-16.6228,-72.7111,23.78,80,74,2.77,PE,1674858704
225,salalah,17.0151,54.0924,22.05,94,40,2.06,OM,1674858704
226,palmer,42.1584,-72.3287,3.75,65,75,2.06,US,1674858631
227,burns lake,54.2331,-125.7533,2.68,88,100,1.99,CA,1674858617
228,itarema,-2.9248,-39.9167,25.8,79,99,4.91,BR,1674858706
229,vila velha,-20.3297,-40.2925,26.97,89,40,4.12,BR,1674858703
230,leshan,29.5623,103.7639,3.87,51,100,0.79,CN,1674858707
231,north bend,43.4065,-124.2243,10.51,96,100,3.46,US,1674858708
232,puerto escondido,15.85,-97.0667,29.46,61,40,1.54,MX,1674858709
233,santa rosa,14.3122,121.1114,24.99,93,100,7.39,PH,1674858687
234,anadyr,64.75,177.4833,-5.72,93,75,15.0,RU,1674858710
235,usevya,-7.1,31.2333,18.74,95,100,0.65,TZ,1674858710
236,khatanga,71.9667,102.5,-23.15,84,100,7.15,RU,1674858711
237,novobiryusinskiy,56.9578,97.7076,-9.39,89,100,4.39,RU,1674858712
238,barentu,15.1139,37.5928,18.16,70,14,1.76,ER,1674858712
239,sarangani,5.4033,125.4636,27.58,74,100,7.42,PH,1674858713
240,cherskiy,68.75,161.3,-29.45,85,81,1.94,RU,1674858713
241,godfrey,38.9556,-90.1868,11.85,55,40,7.72,US,1674858714
242,guerrero negro,27.9769,-114.0611,19.11,22,100,2.73,MX,1674858546
243,abu dhabi,24.4667,54.3667,18.31,87,40,3.6,AE,1674858606
244,andenes,69.3143,16.1194,4.99,65,75,8.23,NO,1674858715
245,todos santos,23.45,-110.2167,26.14,64,100,3.02,MX,1674858440
246,mandurah,-32.55,115.7,16.14,66,0,5.5,AU,1674858717
247,sibolga,1.7427,98.7792,23.39,92,100,1.22,ID,1674858486
248,leningradskiy,69.3833,178.4167,-29.04,93,63,3.27,RU,1674858718
249,kaitangata,-46.2817,169.8464,15.5,54,2,3.75,NZ,1674858718
250,margate,51.3813,1.3862,5.5,70,48,2.68,GB,1674858581
251,el real de santa maria,8.109,-77.7325,26.21,79,88,2.49,PA,1674858720
252,kroya,-7.6331,109.2461,24.66,88,99,1.1,ID,1674858720
253,taltal,-25.4,-70.4833,21.27,74,34,3.09,CL,1674858721
254,port hedland,-20.3167,118.5667,28.03,83,90,1.03,AU,1674858722
255,gorontalo,0.5412,123.0595,24.49,92,99,1.21,ID,1674858722
256,kerema,-7.9631,145.7785,27.37,81,98,2.07,PG,1674858723
257,santa maria,-29.6842,-53.8069,30.61,66,40,1.54,BR,1674858724
258,georgetown,5.4112,100.3354,25.96,87,20,1.03,MY,1674858625
259,tautira,-17.7333,-149.15,26.74,76,13,6.26,PF,1674858725
260,lazarev,52.225,141.5131,-20.83,92,100,3.6,RU,1674858726
261,chum phae,16.5443,102.0992,13.02,76,0,0.87,TH,1674858726
262,ponta do sol,32.6667,-17.1,16.35,61,24,3.39,PT,1674858727
263,itoman,26.1247,127.6694,12.01,66,40,11.83,JP,1674858728
264,galesong,-5.3166,119.3661,24.01,89,100,3.26,ID,1674858728
265,melbu,68.5044,14.8297,4.88,81,75,9.26,NO,1674858729
266,jackson,42.4165,-122.8345,10.47,67,0,1.54,US,1674858445
267,el cobre,20.0489,-75.9469,27.69,65,20,4.12,CU,1674858730
268,saint-augustin,51.226,-58.6502,-11.14,76,78,6.34,CA,1674858731
269,ixtapa,20.7,-105.2,25.13,78,75,4.63,MX,1674858731
270,buraydah,26.326,43.975,9.25,55,0,3.24,SA,1674858732
271,pangnirtung,66.1451,-65.7125,-31.0,76,40,4.63,CA,1674858733
272,ilulissat,69.2167,-51.1,-10.99,48,100,3.6,GL,1674858733
273,san jose,37.3394,-121.895,19.86,47,20,2.68,US,1674858720
274,rabaul,-4.1967,152.1721,27.87,70,80,1.88,PG,1674858734
275,hit,33.6416,42.8251,10.98,46,5,2.53,IQ,1674858735
276,urengoy,65.9667,78.3667,-16.22,98,76,4.14,RU,1674858736
277,cayenne,4.9333,-52.3333,25.02,83,100,1.03,GF,1674858737
278,vila do maio,15.1333,-23.2167,24.44,80,34,7.17,CV,1674858737
279,yamada,39.4667,141.95,-1.4,51,72,3.07,JP,1674858738
280,hefei,31.8639,117.2808,-5.99,79,0,3.0,CN,1674858739
281,yumen,40.2833,97.2,-10.37,50,1,9.42,CN,1674858739
282,vila franca do campo,37.7167,-25.4333,13.23,80,75,4.46,PT,1674858740
283,port macquarie,-31.4333,152.9167,26.05,70,52,0.93,AU,1674858468
284,knysna,-34.0363,23.0471,21.25,87,99,1.41,ZA,1674858741
285,alekseyevka,50.6309,38.6903,-6.82,89,88,2.16,RU,1674858742
286,aiken,33.5835,-81.5998,9.81,43,0,3.09,US,1674858624
287,sisimiut,66.9395,-53.6735,-11.87,66,100,3.87,GL,1674858677
288,dubovka,49.0583,44.829,-11.47,92,51,1.57,RU,1674858743
289,goderich,43.7501,-81.7165,-2.27,74,100,7.2,CA,1674858744
290,ostrovnoy,68.0531,39.5131,-4.85,82,100,9.4,RU,1674858745
291,moncton,46.1159,-64.8019,-3.73,44,0,4.63,CA,1674858490
292,bayir,37.2687,28.2167,5.29,85,33,1.88,TR,1674858746
293,sayyan,15.1718,44.3244,9.35,84,19,1.66,YE,1674858746
294,varna,43.2167,27.9167,5.13,95,100,5.66,BG,1674858747
295,sinop,41.7711,34.8709,7.96,54,100,4.01,TR,1674858537
296,meulaboh,4.1363,96.1285,22.98,92,100,2.95,ID,1674858748
297,kavieng,-2.5744,150.7967,28.78,71,96,4.82,PG,1674858681
298,chapais,49.7834,-74.8492,-18.12,91,98,4.41,CA,1674858749
299,rocha,-34.4833,-54.3333,23.59,83,100,2.66,UY,1674858750
300,sola,-13.8833,167.55,27.95,75,75,6.0,VU,1674858750
301,poya,-21.35,165.15,27.69,75,93,2.9,NC,1674858751
302,muzhi,65.3667,64.6667,-9.34,81,99,4.54,RU,1674858752
303,oktyabrskiy,54.4815,53.471,-12.77,96,77,3.81,RU,1674858752
304,griffith,41.5284,-87.4237,2.39,87,100,7.72,US,1674858753
305,bac lieu,9.285,105.7244,23.17,81,91,3.68,VN,1674858754
306,atar,20.5169,-13.0499,17.17,17,94,5.12,MR,1674858755
307,fort nelson,58.8053,-122.7002,-12.81,74,75,4.63,CA,1674858601
308,rosarito,32.3333,-117.0333,23.56,37,0,4.77,MX,1674858756
309,cobija,-11.0267,-68.7692,26.33,76,82,1.78,BO,1674858757
310,ballina,-28.8667,153.5667,26.12,84,44,0.46,AU,1674858758
311,humaita,-7.5061,-63.0208,24.15,96,91,0.65,BR,1674858759
312,nicoya,10.1483,-85.452,27.37,58,85,7.71,CR,1674858759
313,butaritari,3.0707,172.7902,27.5,78,13,8.04,KI,1674858760
314,puerto colombia,10.9878,-74.9547,28.05,80,22,12.42,CO,1674858761
315,nanortalik,60.1432,-45.2371,1.79,94,100,8.79,GL,1674858761
316,altamira,-3.2033,-52.2064,22.64,96,67,1.11,BR,1674858762
317,mount isa,-20.7333,139.5,29.87,54,29,2.57,AU,1674858763
318,shache,38.4167,77.2406,-11.61,92,83,1.33,CN,1674858763
319,flinders,-34.5833,150.8552,26.7,89,16,2.68,AU,1674858764
320,moose factory,51.2585,-80.6094,-13.0,72,100,4.63,CA,1674858764
321,lagoa,39.05,-27.9833,14.5,63,100,5.95,PT,1674858765
322,morant bay,17.8815,-76.4093,29.79,75,13,4.94,JM,1674858766
323,ardakan,32.31,54.0175,2.59,67,22,2.5,IR,1674858766
324,krasnoselkup,65.7,82.4667,-14.44,97,98,5.09,RU,1674858768
325,watertown,42.3709,-71.1828,4.01,56,75,3.09,US,1674858626
326,jalu,29.0331,21.5482,12.57,60,0,4.53,LY,1674858769
327,sitka,57.0531,-135.33,4.94,87,75,4.63,US,1674858769
328,nipawin,53.3668,-104.0009,-19.98,71,20,2.57,CA,1674858770
329,sakaiminato,35.55,133.2333,-0.01,100,75,0.51,JP,1674858708
330,lompoc,34.6391,-120.4579,22.79,60,0,9.83,US,1674858596
331,chililabombwe,-12.3648,27.8229,17.23,97,100,1.68,ZM,1674858771
332,kota bahru,6.1333,102.2386,22.97,94,40,0.0,MY,1674858772
333,komsomolskiy,40.4272,71.7189,-6.6,79,43,0.51,UZ,1674858773
334,tatawin,32.9297,10.4518,6.55,51,0,3.81,TN,1674858773
335,karpogory,64.0019,44.4451,-9.89,91,99,3.34,RU,1674858774
336,cabo san lucas,22.8909,-109.9124,23.12,56,40,5.66,MX,1674858775
337,amudat,1.95,34.95,19.76,48,13,2.63,UG,1674858775
338,treinta y tres,-33.2333,-54.3833,29.67,42,100,6.85,UY,1674858396
339,bindura,-17.3019,31.3306,17.88,89,71,0.38,ZW,1674858776
340,bambanglipuro,-7.95,110.2833,24.47,86,100,1.18,ID,1674858777
341,chimbote,-9.0853,-78.5783,23.03,73,68,3.98,PE,1674858778
342,hasaki,35.7333,140.8333,-2.66,53,48,5.03,JP,1674858778
343,amiens,49.9,2.3,3.55,78,100,3.7,FR,1674858779
344,necochea,-38.5473,-58.7368,19.3,72,37,6.62,AR,1674858780
345,komsomolskoye,55.2567,47.5461,-11.6,97,48,3.54,RU,1674858780
346,okha,53.5739,142.9478,-21.05,96,100,9.79,RU,1674858781
347,soe,-9.8607,124.284,21.12,86,100,0.92,ID,1674858782
348,nemuro,43.3236,145.575,-4.36,66,99,2.56,JP,1674858782
349,punta alta,-38.8759,-62.0736,26.41,54,0,7.65,AR,1674858783
350,tolaga bay,-38.3667,178.3,19.13,96,100,7.47,NZ,1674858784
351,talara,-4.5772,-81.2719,28.42,57,0,5.14,PE,1674858784
352,kapit,2.0167,112.9333,22.88,99,100,0.67,MY,1674858785
353,flin flon,54.7682,-101.865,-23.09,59,20,4.63,CA,1674858786
354,tarata,-17.6167,-66.0167,22.68,51,74,3.16,BO,1674858786
355,pochutla,15.7432,-96.4661,30.46,47,24,3.26,MX,1674858787
356,fez,34.0372,-4.9998,5.14,81,40,3.6,MA,1674858788
357,thornbury,52.2333,-2.55,4.26,80,99,1.31,GB,1674858543
358,gayeri,12.6497,0.4931,26.82,14,100,3.75,BF,1674858789
359,kariba,-16.5167,28.8,20.8,92,100,1.35,ZW,1674858790
360,bawku,11.0616,-0.2417,27.83,13,97,3.37,GH,1674858790
361,rawson,-43.3002,-65.1023,21.64,38,12,5.98,AR,1674858791
362,bakchar,57.0186,82.0711,-7.77,94,100,3.68,RU,1674858792
363,kuopio,62.8924,27.677,-6.03,93,100,4.12,FI,1674858792
364,arys,42.4252,68.795,-9.89,93,93,1.52,KZ,1674858793
365,nome,64.5011,-165.4064,-7.13,93,100,8.23,US,1674858794
366,bejar,40.3864,-5.7634,-1.47,91,33,5.67,ES,1674858794
367,camalu,30.85,-116.0667,16.74,31,63,3.58,MX,1674858795
368,kungalv,57.871,11.9805,2.88,93,42,5.31,SE,1674858796
369,chuy,-33.6971,-53.4616,23.83,91,91,3.14,UY,1674858796
370,lebu,-37.6167,-73.65,15.31,73,4,8.78,CL,1674858797
371,brae,60.3964,-1.353,6.79,65,85,10.37,GB,1674858798
372,swan river,52.1058,-101.2676,-19.06,71,92,1.03,CA,1674858798
373,wanning,18.8003,110.3967,15.2,75,100,6.93,CN,1674858799
374,semey,50.4111,80.2275,-16.11,82,11,3.97,KZ,1674858800
375,panjab,34.388,67.0233,-14.22,63,100,1.77,AF,1674858801
376,narsaq,60.9167,-46.05,3.12,98,100,4.33,GL,1674858802
377,pangai,-19.8,-174.35,29.06,70,75,1.54,TO,1674858803
378,riyadh,24.6877,46.7219,9.08,53,0,2.26,SA,1674858764
379,linfen,36.0889,111.5189,-5.63,30,0,2.32,CN,1674858804
380,san patricio,28.017,-97.5169,15.93,69,100,4.51,US,1674858804
381,aljezur,37.3191,-8.8033,7.34,73,2,4.12,PT,1674858805
382,bambous virieux,-20.3428,57.7575,25.68,94,75,0.51,MU,1674858805
383,lavrentiya,65.5833,-171.0,-11.97,94,93,3.99,RU,1674858807
384,sur,22.5667,59.5289,19.01,71,23,3.26,OM,1674858808
385,pyrzyce,53.1462,14.8926,1.0,91,7,2.38,PL,1674858809
386,binzhou,37.3667,118.0167,-7.29,35,0,3.65,CN,1674858810
387,joshimath,30.5667,79.5667,2.67,29,0,5.32,IN,1674858810
388,camacha,33.0833,-16.3333,13.68,67,40,6.69,PT,1674858811
389,port blair,11.6667,92.75,27.02,74,20,1.03,IN,1674858812
390,tateyama,34.9833,139.8667,4.23,50,29,8.23,JP,1674858813
391,inta,66.0317,60.1659,-7.8,93,100,8.07,RU,1674858813
392,san policarpo,12.1791,125.5072,25.6,85,100,2.65,PH,1674858814
393,singaraja,-8.112,115.0882,26.28,84,100,1.83,ID,1674858815
394,novoagansk,61.9449,76.6625,-10.41,96,99,3.91,RU,1674858815
395,rudnogorsk,57.2639,103.7519,-10.56,90,100,4.65,RU,1674858816
396,ornskoldsvik,63.2909,18.7153,-1.47,86,100,2.06,SE,1674858816
397,changying,52.8733,123.3213,-36.49,99,31,2.0,CN,1674858817
398,liverpool,53.4106,-2.9779,4.13,91,75,1.54,GB,1674858536
399,limon,10.0,-83.0333,27.94,69,40,3.6,CR,1674858818
400,ondjiva,-17.0667,15.7333,23.66,62,99,4.38,AO,1674858819
401,svetlogorsk,52.6333,29.7333,-3.19,75,59,1.77,BY,1674858820
402,mangan,27.5167,88.5333,13.16,48,10,2.33,IN,1674858820
403,ternate,0.8,127.4,26.29,82,93,2.07,ID,1674858821
404,caucaia,-3.7361,-38.6531,27.97,77,0,2.57,BR,1674858822
405,beroroha,-21.6667,45.1667,24.01,87,100,5.86,MG,1674858822
406,deputatskiy,69.3,139.9,-34.09,83,6,0.87,RU,1674858823
407,kendari,-3.945,122.4989,24.32,89,97,1.43,ID,1674858585
408,atocha,-20.9333,-66.2333,13.38,50,81,8.22,BO,1674858824
409,chicama,-7.8447,-79.1469,21.3,63,73,3.47,PE,1674858825
410,baykit,61.67,96.37,-11.27,95,100,2.49,RU,1674858826
411,chumikan,54.7183,135.315,-31.01,89,76,7.7,RU,1674858826
412,katherine,-14.4667,132.2667,26.18,89,100,3.09,AU,1674858827
413,rio gallegos,-51.6226,-69.2181,16.03,67,100,4.63,AR,1674858827
414,vao,-22.6667,167.4833,24.81,73,66,4.84,NC,1674858828
415,suez,29.9737,32.5263,18.37,66,88,5.84,EG,1674858829
416,zelenoborskiy,66.845,32.3622,-3.5,90,100,5.71,RU,1674858830
417,arawa,-6.2132,155.5367,29.33,70,29,1.23,PG,1674858830
418,springbok,-29.6643,17.8865,17.96,45,0,2.08,ZA,1674858831
419,juneau,58.3019,-134.4197,4.01,97,100,3.09,US,1674858832
420,vysokogornyy,50.1167,139.15,-31.43,98,97,1.64,RU,1674858832
421,princeton,25.5384,-80.4089,21.12,77,100,5.66,US,1674858702
422,quatre cocos,-20.2078,57.7625,25.61,89,100,2.93,MU,1674858833
423,olinda,-8.0089,-34.8553,27.85,69,20,3.09,BR,1674858474
424,odweyne,9.4092,45.064,18.77,68,5,2.8,SO,1674858834
425,ambon,-3.6954,128.1814,24.57,16,40,2.06,ID,1674858835
426,samarinda,-0.5,117.15,23.17,97,100,1.15,ID,1674858836
427,saint anthony,45.0205,-93.218,-6.03,66,0,7.72,US,1674858837
428,uhlove,44.8215,33.6045,8.9,56,100,4.43,UA,1674858838
429,horsham,51.064,-0.3272,2.92,87,0,2.06,GB,1674858838
430,beyneu,45.3167,55.2,-3.12,52,14,4.16,KZ,1674858839
431,vathi,38.4,23.6,11.51,87,100,1.15,GR,1674858840
432,talnakh,69.4865,88.3972,-14.33,96,100,4.01,RU,1674858840
433,jardim,-21.4803,-56.1381,28.92,49,50,2.25,BR,1674858841
434,sidvokodvo,-26.6282,31.4202,19.24,89,1,1.44,SZ,1674858842
435,birobidzhan,48.8,132.95,-36.2,96,5,1.28,RU,1674858842
436,yanaul,56.2719,54.9309,-8.25,94,100,5.53,RU,1674858843
437,acajutla,13.5928,-89.8275,29.72,56,66,2.15,SV,1674858844
438,abaetetuba,-1.7181,-48.8825,23.43,94,100,1.98,BR,1674858844
439,clyde river,70.4692,-68.5914,-24.87,77,100,16.46,CA,1674858845
440,isla vista,34.4133,-119.861,22.73,46,0,3.09,US,1674858845
441,darhan,49.4867,105.9228,-21.83,90,23,3.03,MN,1674858846
442,guaratuba,-25.8828,-48.5747,26.97,80,21,3.2,BR,1674858847
443,bonfim,3.0833,-59.95,28.61,43,60,5.21,BR,1674858847
444,nicolas bravo,18.45,-88.9167,22.47,95,61,1.58,MX,1674858848
445,swinoujscie,53.9105,14.2471,2.08,75,100,1.03,PL,1674858849
446,umm bab,25.2142,50.8072,15.68,54,0,8.36,QA,1674858849
447,berwick,41.0545,-76.2333,2.23,60,96,0.45,US,1674858850
448,baghdad,33.3406,44.4009,6.95,87,4,2.06,IQ,1674858851
449,najran,17.4924,44.1277,14.36,83,96,2.59,SA,1674858761
450,sri aman,1.2376,111.4621,22.03,100,96,1.54,MY,1674858852
451,colonia,50.9333,6.95,4.42,78,100,2.57,DE,1674858853
452,portland,45.5234,-122.6762,11.33,84,75,1.54,US,1674858290
453,otane,-39.8833,176.6333,18.89,98,100,3.61,NZ,1674858854
454,bolkhov,53.4433,36.0044,-6.23,97,100,1.22,RU,1674858855
455,xining,36.6167,101.7667,-10.45,43,8,1.07,CN,1674858856
456,parkes,-33.1333,148.1833,30.2,37,0,2.24,AU,1674858856
457,koulikoro,14.0,-7.75,23.01,17,87,4.23,ML,1674858857
458,sanary-sur-mer,43.1178,5.8001,8.27,75,95,0.89,FR,1674858858
459,sembakung,3.8167,117.25,22.73,99,98,0.67,ID,1674858859
460,eau claire,44.8114,-91.4985,-3.79,68,40,5.66,US,1674858499
461,keflavik,64.0049,-22.5624,3.24,75,75,9.77,IS,1674858860
462,pokhara,28.2333,83.9833,14.06,12,0,3.22,NP,1674858861
463,vanimo,-2.6741,141.3028,26.51,83,97,2.39,PG,1674858861
464,kainantu,-6.2887,145.8655,19.38,81,100,1.28,PG,1674858862
465,uray,60.1247,64.7758,-6.52,97,100,2.21,RU,1674858863
466,marzuq,14.4,46.4667,15.82,81,32,2.68,YE,1674858863
467,axim,4.8699,-2.2405,26.6,86,83,3.68,GH,1674858864
468,zhigansk,66.7697,123.3711,-43.74,97,88,4.35,RU,1674858865
469,miraflores,19.2167,-98.8083,21.36,23,1,3.49,MX,1674858865
470,joensuu,62.6012,29.7632,-7.73,93,0,3.6,FI,1674858866
471,salmas,38.1973,44.7653,-2.49,65,31,0.63,IR,1674858867
472,kyzyl-suu,42.3414,78.0056,-8.77,55,30,3.95,KG,1674858867
473,dustlik,40.5247,68.0358,-7.44,94,29,1.66,UZ,1674858868
474,benguela,-12.5763,13.4055,25.95,80,42,0.99,AO,1674858869
475,morgan city,29.6994,-91.2068,16.11,38,0,3.09,US,1674858870
476,gujar khan,33.2558,73.3026,8.68,43,88,2.22,PK,1674858870
477,iroquois falls,48.7669,-80.6831,-5.2,88,100,7.03,CA,1674858871
478,wajid,3.8093,43.2471,22.29,62,6,6.97,SO,1674858872
479,palmas,-10.2128,-48.3603,26.93,74,20,1.54,BR,1674858762
480,kaifeng,34.7911,114.3483,-2.3,23,0,5.74,CN,1674858873
481,urumqi,43.801,87.6005,-20.47,78,9,1.0,CN,1674858874
482,jardim de piranhas,-6.3786,-37.3519,29.92,48,87,3.76,BR,1674858874
483,zyryanka,65.75,150.85,-30.68,99,100,0.95,RU,1674858875
484,kloulklubed,7.0419,134.2556,23.28,83,98,4.77,PW,1674858876
485,along,28.1667,94.7667,14.4,63,53,0.32,IN,1674858876
486,yulara,-25.2406,130.9889,25.05,71,100,2.95,AU,1674858877
487,fuyu,45.1833,124.8167,-21.53,88,32,2.32,CN,1674858877
488,phan thiet,10.9333,108.1,22.24,74,97,4.8,VN,1674858878
489,nakusp,50.2499,-117.8023,3.6,100,98,0.51,CA,1674858879
490,bahia honda,22.9036,-83.1592,21.58,85,100,5.67,CU,1674858879
491,mbour,14.422,-16.9638,25.47,40,10,7.07,SN,1674858880
492,rovaniemi,66.5,25.7167,-1.33,100,100,8.75,FI,1674858881
493,varadero,23.1536,-81.2514,22.42,78,49,6.87,CU,1674858882
494,nishihara,26.1842,127.7558,11.6,67,40,11.83,JP,1674858883
495,lima,-12.0432,-77.0282,23.14,73,0,5.66,PE,1674858561
496,samarai,-10.6167,150.6667,28.57,75,64,5.42,PG,1674858884
497,san matias,-16.3667,-58.4,24.73,92,100,2.33,BO,1674858884
498,tuy hoa,13.0833,109.3,21.56,85,99,9.15,VN,1674858885
499,uspenka,48.3903,39.1619,-3.48,75,6,3.07,UA,1674858886
500,hlobyne,49.3878,33.2596,-2.69,64,44,3.34,UA,1674858886
501,makkaveyevo,51.7533,113.9454,-20.07,99,100,0.26,RU,1674858887
502,mabaruma,8.2,-59.7833,20.43,78,35,1.2,GY,1674858887
503,buala,-8.145,159.5921,28.49,75,85,2.66,SB,1674858888
504,stantsionno-oyashinskiy,55.4664,83.8245,-8.2,94,100,7.05,RU,1674858889
505,sioux lookout,50.1001,-91.917,-15.96,78,100,7.72,CA,1674858889
506,los alamos,35.8881,-106.307,3.71,37,0,2.06,US,1674858890
507,vostok,46.4856,135.8833,-33.3,99,82,1.76,RU,1674858891
508,roncesvalles,4.0108,-75.6049,12.71,93,98,0.42,CO,1674858892
509,salo,45.6086,10.531,2.15,80,100,0.62,IT,1674858892
510,lapeer,43.0514,-83.3188,-2.25,86,100,6.17,US,1674858837
511,ituporanga,-27.4144,-49.6025,22.01,79,0,1.75,BR,1674858894
512,seoul,37.5683,126.9778,-9.31,57,0,1.54,KR,1674858373
513,fortuna,40.5982,-124.1573,11.63,87,100,4.12,US,1674858895
514,mackenzie,55.2999,-123.1698,-1.88,100,100,6.17,CA,1674858622
515,porto santo,33.072,-16.3415,15.21,67,40,6.69,PT,1674858896
516,bocas del toro,9.3333,-82.25,26.16,73,96,4.31,PA,1674858896
517,kajaani,64.2273,27.7285,-3.97,93,20,4.63,FI,1674858897
518,maroua,10.591,14.3159,27.03,13,100,2.79,CM,1674858898
519,sihora,23.4833,80.1167,13.63,65,0,1.47,IN,1674858898
520,zhangjiakou,40.81,114.8794,-12.41,54,0,2.77,CN,1674858899
521,pingliang,35.5392,106.6861,-8.32,35,18,0.62,CN,1674858900
522,verkhnetulomskiy,68.6073,31.7962,-3.93,91,100,3.29,RU,1674858900
523,kindu,-2.95,25.95,20.49,97,100,1.43,CD,1674858901
524,oranjemund,-28.55,16.4333,17.57,95,21,3.62,NA,1674858902
525,martapura,-3.4167,114.85,23.05,100,100,1.03,ID,1674858903
526,muscatine,41.4667,-91.1335,0.69,71,100,7.72,US,1674858904
527,bay roberts,47.5999,-53.2648,1.95,86,68,5.36,CA,1674858905
528,kaohsiung,22.6163,120.3133,11.13,61,75,3.09,TW,1674858749
529,hirara,24.8,125.2833,10.92,81,75,11.83,JP,1674858906
530,kruisfontein,-34.0033,24.7314,22.71,94,11,2.75,ZA,1674858906
531,gogrial,8.5332,28.1004,26.09,19,37,2.27,SS,1674858907
532,manadhoo,5.7667,73.3833,26.82,70,2,5.54,MV,1674858908
533,morros,-9.4467,-46.3003,24.49,70,96,1.45,BR,1674858908
534,pozo colorado,-23.4923,-58.7972,31.63,44,29,1.36,PY,1674858909
535,shelburne,44.0787,-80.2041,-3.94,89,100,8.52,CA,1674858910
536,dawson creek,55.7666,-120.2362,-11.2,73,100,5.66,CA,1674858910
537,khani,41.9563,42.9566,2.76,39,26,3.35,GE,1674858911
538,mackay,-21.15,149.2,27.05,78,74,1.94,AU,1674858912
539,nantucket,41.2835,-70.0995,3.08,69,0,2.06,US,1674858854
540,vadso,70.0744,29.7487,-0.91,93,75,6.17,NO,1674858913
541,storm lake,42.6411,-95.2097,-4.42,80,0,4.12,US,1674858913
542,carballo,43.213,-8.691,8.26,79,78,3.84,ES,1674858914
543,natal,-5.795,-35.2094,27.36,78,20,5.14,BR,1674858252
544,blonie,52.1985,20.6171,1.65,95,98,2.63,PL,1674858915
545,agadez,19.75,10.25,18.94,13,100,0.85,NE,1674858916
546,lipetsk,52.6031,39.5708,-8.13,97,100,0.77,RU,1674858917
547,qinhuangdao,39.9317,119.5883,-8.04,44,9,3.3,CN,1674858918
548,camocim,-2.9022,-40.8411,25.55,82,52,5.32,BR,1674858918
549,bria,6.5423,21.9863,23.55,20,77,1.51,CF,1674858919
550,wladyslawowo,54.7909,18.4009,2.74,69,95,3.57,PL,1674858920
551,portlethen,57.0547,-2.1307,6.63,93,98,1.03,GB,1674858920
552,biak,-0.9131,122.8766,25.16,83,100,0.75,ID,1674858921
553,hualmay,-11.0964,-77.6139,22.92,79,92,4.15,PE,1674858922
554,maroantsetra,-15.4333,49.7333,24.18,88,57,1.79,MG,1674858923
555,lokosovo,61.1333,74.8167,-7.99,95,100,3.36,RU,1674858923
556,carutapera,-1.195,-46.02,23.86,93,80,1.83,BR,1674858924
557,port hardy,50.6996,-127.4199,7.1,87,75,6.69,CA,1674858925
558,olga,43.7444,135.2892,-20.32,72,10,4.58,RU,1674858926
559,steubenville,40.3698,-80.634,1.23,60,96,1.34,US,1674858927
560,la ronge,55.1001,-105.2842,-20.86,54,20,4.12,CA,1674858927
561,svetlyy,54.675,20.1347,0.03,78,93,2.0,RU,1674858928
562,los llanos de aridane,28.6585,-17.9182,14.86,77,100,6.17,ES,1674858929
563,praia da vitoria,38.7333,-27.0667,12.64,94,75,6.24,PT,1674858929
564,digora,43.1581,44.1569,-3.65,77,7,0.88,RU,1674858930
565,mandalgovi,45.7625,106.2708,-14.61,60,1,5.06,MN,1674858931
566,moissala,8.3404,17.7663,27.1,16,51,2.07,TD,1674858931
567,buhe,30.2876,112.2298,-0.07,35,4,1.1,CN,1674858932
568,vargashi,55.3556,65.8467,-9.43,91,100,4.94,RU,1674858933
569,campbell river,50.0163,-125.2446,10.21,66,40,7.2,CA,1674858933
570,phangnga,8.4509,98.5298,25.02,93,99,2.11,TH,1674858934
571,virginia beach,36.8529,-75.978,9.02,48,20,5.14,US,1674858512
572,marienburg,54.0359,19.0266,-0.06,78,81,2.19,PL,1674858935
573,alpine,32.835,-116.7664,21.32,26,0,4.12,US,1674858707
574,cocorit,27.5833,-109.9667,20.19,14,100,3.38,MX,1674858937
575,klaksvik,62.2266,-6.589,5.51,73,68,15.11,FO,1674858937
576,port hawkesbury,45.6169,-61.3485,-1.9,72,0,6.69,CA,1674858933
